{"type":"FeatureCollection","features":[{"type":"Feature","properties":{"Община":"Обединено кралство Великобритания и Северна Ирландия","text":"Абърдийн","Адрес":"Абърдийн"},"geometry":{"type":"Point","coordinates":[-2.093753,57.149889]}},{"type":"Feature","properties":{"Община":"Обединено кралство Великобритания и Северна Ирландия","text":"Арма","Адрес":"Арма"},"geometry":{"type":"Point","coordinates":[-6.652792,54.35028]}},{"type":"Feature","properties":{"Община":"Обединено кралство Великобритания и Северна Ирландия","text":"Базилдън","Адрес":"Базилдън"},"geometry":{"type":"Point","coordinates":[0.488736,51.576084]}},{"type":"Feature","properties":{"Община":"Обединено кралство Великобритания и Северна Ирландия","text":"Бедфорд","Адрес":"Бедфорд"},"geometry":{"type":"Point","coordinates":[-0.466769,52.13866]}},{"type":"Feature","properties":{"Община":"Обединено кралство Великобритания и Северна Ирландия","text":"Бейзингстоук","Адрес":"Бейзингстоук"},"geometry":{"type":"Point","coordinates":[-1.092072,51.266281]}},{"type":"Feature","properties":{"Община":"Обединено кралство Великобритания и Северна Ирландия","text":"Белфаст","Адрес":"Белфаст"},"geometry":{"type":"Point","coordinates":[-5.93012,54.597285]}},{"type":"Feature","properties":{"Община":"Обединено кралство Великобритания и Северна Ирландия","text":"Бирмингам ","Адрес":"Бирмингам "},"geometry":{"type":"Point","coordinates":[-1.890008,52.482269]}},{"type":"Feature","properties":{"Община":"Обединено кралство Великобритания и Северна Ирландия","text":"Бишъпс Стортфорд","Адрес":"Бишъпс Стортфорд"},"geometry":{"type":"Point","coordinates":[0.15365,51.872164]}},{"type":"Feature","properties":{"Община":"Обединено кралство Великобритания и Северна Ирландия","text":"Богнър Реджис","Адрес":"Богнър Реджис"},"geometry":{"type":"Point","coordinates":[-0.656591,50.812583]}},{"type":"Feature","properties":{"Община":"Обединено кралство Великобритания и Северна Ирландия","text":"Борнмът","Адрес":"Борнмът"},"geometry":{"type":"Point","coordinates":[-1.866717,50.72201]}},{"type":"Feature","properties":{"Община":"Обединено кралство Великобритания и Северна Ирландия","text":"Бостън","Адрес":"Бостън"},"geometry":{"type":"Point","coordinates":[-0.026577,52.97894]}},{"type":"Feature","properties":{"Община":"Обединено кралство Великобритания и Северна Ирландия","text":"Брайтън","Адрес":"Брайтън"},"geometry":{"type":"Point","coordinates":[-0.136277,50.82333]}},{"type":"Feature","properties":{"Община":"Обединено кралство Великобритания и Северна Ирландия","text":"Бристол ","Адрес":"Бристол "},"geometry":{"type":"Point","coordinates":[-2.58791,51.454513]}},{"type":"Feature","properties":{"Община":"Обединено кралство Великобритания и Северна Ирландия","text":"Бърнли/Флийтууд","Адрес":"Бърнли/Флийтууд"},"geometry":{"type":"Point","coordinates":[-3.033257,53.910489]}},{"type":"Feature","properties":{"Община":"Обединено кралство Великобритания и Северна Ирландия","text":"Бъртън ъпон Тренд","Адрес":"Бъртън ъпон Тренд"},"geometry":{"type":"Point","coordinates":[-3.435973,55.378051]}},{"type":"Feature","properties":{"Община":"Обединено кралство Великобритания и Северна Ирландия","text":"Гилфорд","Адрес":"Гилфорд"},"geometry":{"type":"Point","coordinates":[-0.570409,51.23622]}},{"type":"Feature","properties":{"Община":"Обединено кралство Великобритания и Северна Ирландия","text":"Глазгоу","Адрес":"Глазгоу"},"geometry":{"type":"Point","coordinates":[-4.258334,55.86167]}},{"type":"Feature","properties":{"Община":"Обединено кралство Великобритания и Северна Ирландия","text":"Глостър","Адрес":"Глостър"},"geometry":{"type":"Point","coordinates":[-2.238156,51.864245]}},{"type":"Feature","properties":{"Община":"Обединено кралство Великобритания и Северна Ирландия","text":"Дартфорд/Грейс, Есекс","Адрес":"Дартфорд/Грейс, Есекс"},"geometry":{"type":"Point","coordinates":[0.475776,51.766837]}},{"type":"Feature","properties":{"Община":"Обединено кралство Великобритания и Северна Ирландия","text":"Даунпатрик/Килкийл","Адрес":"Даунпатрик/Килкийл"},"geometry":{"type":"Point","coordinates":[-6.007004,54.063115]}},{"type":"Feature","properties":{"Община":"Обединено кралство Великобритания и Северна Ирландия","text":"Дънди","Адрес":"Дънди"},"geometry":{"type":"Point","coordinates":[-2.970721,56.462018]}},{"type":"Feature","properties":{"Община":"Обединено кралство Великобритания и Северна Ирландия","text":"Единбург","Адрес":"Единбург"},"geometry":{"type":"Point","coordinates":[-3.188267,55.953252]}},{"type":"Feature","properties":{"Община":"Обединено кралство Великобритания и Северна Ирландия","text":"Екзитър","Адрес":"Екзитър"},"geometry":{"type":"Point","coordinates":[-3.527489,50.726037]}},{"type":"Feature","properties":{"Община":"Обединено кралство Великобритания и Северна Ирландия","text":"Енискилън","Адрес":"Енискилън"},"geometry":{"type":"Point","coordinates":[-7.631534,54.343824]}},{"type":"Feature","properties":{"Община":"Обединено кралство Великобритания и Северна Ирландия","text":"Ийстбърн","Адрес":"Ийстбърн"},"geometry":{"type":"Point","coordinates":[0.263467,50.772545]}},{"type":"Feature","properties":{"Община":"Обединено кралство Великобритания и Северна Ирландия","text":"Имингъм","Адрес":"Имингъм"},"geometry":{"type":"Point","coordinates":[-6.492314,54.787715]}},{"type":"Feature","properties":{"Община":"Обединено кралство Великобритания и Северна Ирландия","text":"Ипсуич","Адрес":"Ипсуич"},"geometry":{"type":"Point","coordinates":[1.148087,52.059669]}},{"type":"Feature","properties":{"Община":"Обединено кралство Великобритания и Северна Ирландия","text":"Кардиф","Адрес":"Кардиф"},"geometry":{"type":"Point","coordinates":[-3.168096,51.483707]}},{"type":"Feature","properties":{"Община":"Обединено кралство Великобритания и Северна Ирландия","text":"Кеймбридж","Адрес":"Кеймбридж"},"geometry":{"type":"Point","coordinates":[0.131273,52.195079]}},{"type":"Feature","properties":{"Община":"Обединено кралство Великобритания и Северна Ирландия","text":"Кент, Кентърбъри","Адрес":"Кент, Кентърбъри"},"geometry":{"type":"Point","coordinates":[1.083786,51.277033]}},{"type":"Feature","properties":{"Община":"Обединено кралство Великобритания и Северна Ирландия","text":"Ковънтри","Адрес":"Ковънтри"},"geometry":{"type":"Point","coordinates":[-1.508952,52.412816]}},{"type":"Feature","properties":{"Община":"Обединено кралство Великобритания и Северна Ирландия","text":"Колчестър","Адрес":"Колчестър"},"geometry":{"type":"Point","coordinates":[0.891874,51.895927]}},{"type":"Feature","properties":{"Община":"Обединено кралство Великобритания и Северна Ирландия","text":"Кроули","Адрес":"Кроули"},"geometry":{"type":"Point","coordinates":[-0.187227,51.10914]}},{"type":"Feature","properties":{"Община":"Обединено кралство Великобритания и Северна Ирландия","text":"Крю","Адрес":"Крю"},"geometry":{"type":"Point","coordinates":[-2.443821,53.100405]}},{"type":"Feature","properties":{"Община":"Обединено кралство Великобритания и Северна Ирландия","text":"Лестър","Адрес":"Лестър"},"geometry":{"type":"Point","coordinates":[-1.139759,52.636878]}},{"type":"Feature","properties":{"Община":"Обединено кралство Великобритания и Северна Ирландия","text":"Ливърпул","Адрес":"Ливърпул"},"geometry":{"type":"Point","coordinates":[-2.991573,53.408371]}},{"type":"Feature","properties":{"Община":"Обединено кралство Великобритания и Северна Ирландия","text":"Лийдс","Адрес":"Лийдс"},"geometry":{"type":"Point","coordinates":[-1.549077,53.800755]}},{"type":"Feature","properties":{"Община":"Обединено кралство Великобритания и Северна Ирландия","text":"Линкълн","Адрес":"Линкълн"},"geometry":{"type":"Point","coordinates":[-0.540579,53.230688]}},{"type":"Feature","properties":{"Община":"Обединено кралство Великобритания и Северна Ирландия","text":"Лондон","Адрес":"Лондон (Баркинг 1)"},"geometry":{"type":"Point","coordinates":[0.036605,51.530012]}},{"type":"Feature","properties":{"Община":"Обединено кралство Великобритания и Северна Ирландия","text":"Лондон","Адрес":"Лондон (Баркинг 2)"},"geometry":{"type":"Point","coordinates":[-0.127586,51.507218]}},{"type":"Feature","properties":{"Община":"Обединено кралство Великобритания и Северна Ирландия","text":"Лондон","Адрес":"Лондон (Баркинг 3)"},"geometry":{"type":"Point","coordinates":[0.03848,51.530485]}},{"type":"Feature","properties":{"Община":"Обединено кралство Великобритания и Северна Ирландия","text":"Лондон","Адрес":"Лондон - (Барнет и Енфийлд)"},"geometry":{"type":"Point","coordinates":[-0.080699,51.652298]}},{"type":"Feature","properties":{"Община":"Обединено кралство Великобритания и Северна Ирландия","text":"Лондон","Адрес":"Лондон (Бромли)"},"geometry":{"type":"Point","coordinates":[0.01868,51.40632]}},{"type":"Feature","properties":{"Община":"Обединено кралство Великобритания и Северна Ирландия","text":"Лондон","Адрес":"Лондон (Гринуич , Уулич)"},"geometry":{"type":"Point","coordinates":[0.009821,51.493368]}},{"type":"Feature","properties":{"Община":"Обединено кралство Великобритания и Северна Ирландия","text":"Лондон","Адрес":"Лондон (Ийлинг)"},"geometry":{"type":"Point","coordinates":[-0.127586,51.507218]}},{"type":"Feature","properties":{"Община":"Обединено кралство Великобритания и Северна Ирландия","text":"Лондон","Адрес":"Лондон (Канада Уотър)"},"geometry":{"type":"Point","coordinates":[-0.127586,51.507218]}},{"type":"Feature","properties":{"Община":"Обединено кралство Великобритания и Северна Ирландия","text":"Лондон","Адрес":"Лондон (Крикълууд)"},"geometry":{"type":"Point","coordinates":[-0.127586,51.507218]}},{"type":"Feature","properties":{"Община":"Обединено кралство Великобритания и Северна Ирландия","text":"Лондон","Адрес":"Лондон (Кройдън)"},"geometry":{"type":"Point","coordinates":[-0.095689,51.376953]}},{"type":"Feature","properties":{"Община":"Обединено кралство Великобритания и Северна Ирландия","text":"Лондон","Адрес":"Лондон (Лейтънстоун)"},"geometry":{"type":"Point","coordinates":[-0.127586,51.507218]}},{"type":"Feature","properties":{"Община":"Обединено кралство Великобритания и Северна Ирландия","text":"Лондон","Адрес":"Лондон (Норбъри)"},"geometry":{"type":"Point","coordinates":[-0.127586,51.507218]}},{"type":"Feature","properties":{"Община":"Обединено кралство Великобритания и Северна Ирландия","text":"Лондон","Адрес":"Лондон (Палмърс Грийн 1)"},"geometry":{"type":"Point","coordinates":[-0.125396,51.625266]}},{"type":"Feature","properties":{"Община":"Обединено кралство Великобритания и Северна Ирландия","text":"Лондон","Адрес":"Лондон (Палмърс Грийн 2)"},"geometry":{"type":"Point","coordinates":[-0.125613,51.625035]}},{"type":"Feature","properties":{"Община":"Обединено кралство Великобритания и Северна Ирландия","text":"Лондон","Адрес":"Лондон (Ричмънд ъпон Темз)"},"geometry":{"type":"Point","coordinates":[-0.127586,51.507218]}},{"type":"Feature","properties":{"Община":"Обединено кралство Великобритания и Северна Ирландия","text":"Лондон","Адрес":"Лондон (Сатън)"},"geometry":{"type":"Point","coordinates":[-0.127586,51.507218]}},{"type":"Feature","properties":{"Община":"Обединено кралство Великобритания и Северна Ирландия","text":"Лондон","Адрес":"Лондон (Стратфорд 1)"},"geometry":{"type":"Point","coordinates":[-0.001037,51.542631]}},{"type":"Feature","properties":{"Община":"Обединено кралство Великобритания и Северна Ирландия","text":"Лондон","Адрес":"Лондон (Стратфорд 2)"},"geometry":{"type":"Point","coordinates":[-0.001037,51.542631]}},{"type":"Feature","properties":{"Община":"Обединено кралство Великобритания и Северна Ирландия","text":"Лондон","Адрес":"Лондон (Сърбитън 1)"},"geometry":{"type":"Point","coordinates":[-0.127586,51.507218]}},{"type":"Feature","properties":{"Община":"Обединено кралство Великобритания и Северна Ирландия","text":"Лондон","Адрес":"Лондон (Сърбитън 2)"},"geometry":{"type":"Point","coordinates":[-0.127586,51.507218]}},{"type":"Feature","properties":{"Община":"Обединено кралство Великобритания и Северна Ирландия","text":"Лондон","Адрес":"Лондон (Тотнъм)"},"geometry":{"type":"Point","coordinates":[-0.068166,51.605575]}},{"type":"Feature","properties":{"Община":"Обединено кралство Великобритания и Северна Ирландия","text":"Лондон","Адрес":"Лондон (Уимбълдън 1)"},"geometry":{"type":"Point","coordinates":[-0.220629,51.418339]}},{"type":"Feature","properties":{"Община":"Обединено кралство Великобритания и Северна Ирландия","text":"Лондон","Адрес":"Лондон (Уимбълдън 2)"},"geometry":{"type":"Point","coordinates":[-0.220629,51.418339]}},{"type":"Feature","properties":{"Община":"Обединено кралство Великобритания и Северна Ирландия","text":"Лондон","Адрес":"Лондон (Уимбълдън 3)"},"geometry":{"type":"Point","coordinates":[-0.220629,51.418339]}},{"type":"Feature","properties":{"Община":"Обединено кралство Великобритания и Северна Ирландия","text":"Лондон","Адрес":"Лондон (Уолтъмстоу)"},"geometry":{"type":"Point","coordinates":[-0.017344,51.590177]}},{"type":"Feature","properties":{"Община":"Обединено кралство Великобритания и Северна Ирландия","text":"Лондон","Адрес":"Лондон (Уолтъмстоу/Саут Уудфорд)"},"geometry":{"type":"Point","coordinates":[-0.017344,51.590177]}},{"type":"Feature","properties":{"Община":"Обединено кралство Великобритания и Северна Ирландия","text":"Лондон","Адрес":"Лондон (Ууд Грийн)"},"geometry":{"type":"Point","coordinates":[-0.109802,51.597172]}},{"type":"Feature","properties":{"Община":"Обединено кралство Великобритания и Северна Ирландия","text":"Лондон","Адрес":"Лондон (Фелтъм)"},"geometry":{"type":"Point","coordinates":[-0.127586,51.507218]}},{"type":"Feature","properties":{"Община":"Обединено кралство Великобритания и Северна Ирландия","text":"Лондон","Адрес":"Лондон (Хароу)"},"geometry":{"type":"Point","coordinates":[-0.342119,51.580501]}},{"type":"Feature","properties":{"Община":"Обединено кралство Великобритания и Северна Ирландия","text":"Лондон","Адрес":"Лондон (Хаунслоу)"},"geometry":{"type":"Point","coordinates":[-0.363231,51.470422]}},{"type":"Feature","properties":{"Община":"Обединено кралство Великобритания и Северна Ирландия","text":"Лондон","Адрес":"Лондон (Посолство 1)"},"geometry":{"type":"Point","coordinates":[-0.127586,51.507218]}},{"type":"Feature","properties":{"Община":"Обединено кралство Великобритания и Северна Ирландия","text":"Лондон","Адрес":"Лондон (Посолство 2)"},"geometry":{"type":"Point","coordinates":[-0.127586,51.507218]}},{"type":"Feature","properties":{"Община":"Обединено кралство Великобритания и Северна Ирландия","text":"Лондон","Адрес":"Лондон (Посолство 3)"},"geometry":{"type":"Point","coordinates":[-0.127586,51.507218]}},{"type":"Feature","properties":{"Община":"Обединено кралство Великобритания и Северна Ирландия","text":"Лондон","Адрес":"Лондон (Посолство 4)"},"geometry":{"type":"Point","coordinates":[-0.127586,51.507218]}},{"type":"Feature","properties":{"Община":"Обединено кралство Великобритания и Северна Ирландия","text":"Лутън","Адрес":"Лутън"},"geometry":{"type":"Point","coordinates":[-0.420025,51.878671]}},{"type":"Feature","properties":{"Община":"Обединено кралство Великобритания и Северна Ирландия","text":"Манчестър","Адрес":"Манчестър 1"},"geometry":{"type":"Point","coordinates":[-2.24263,53.480759]}},{"type":"Feature","properties":{"Община":"Обединено кралство Великобритания и Северна Ирландия","text":"Манчестър","Адрес":"Манчестър 2"},"geometry":{"type":"Point","coordinates":[-2.24263,53.480759]}},{"type":"Feature","properties":{"Община":"Обединено кралство Великобритания и Северна Ирландия","text":"Мейдстоун","Адрес":"Мейдстоун"},"geometry":{"type":"Point","coordinates":[0.522724,51.270408]}},{"type":"Feature","properties":{"Община":"Обединено кралство Великобритания и Северна Ирландия","text":"Милтън Кийнс","Адрес":"Милтън Кийнс"},"geometry":{"type":"Point","coordinates":[-0.759417,52.040622]}},{"type":"Feature","properties":{"Община":"Обединено кралство Великобритания и Северна Ирландия","text":"Норич","Адрес":"Норич"},"geometry":{"type":"Point","coordinates":[1.29788,52.629257]}},{"type":"Feature","properties":{"Община":"Обединено кралство Великобритания и Северна Ирландия","text":"Нотингам","Адрес":"Нотингам"},"geometry":{"type":"Point","coordinates":[-1.154989,52.954022]}},{"type":"Feature","properties":{"Община":"Обединено кралство Великобритания и Северна Ирландия","text":"Нюкасъл","Адрес":"Нюкасъл"},"geometry":{"type":"Point","coordinates":[-5.892044,54.21614]}},{"type":"Feature","properties":{"Община":"Обединено кралство Великобритания и Северна Ирландия","text":"Озуъстри","Адрес":"Озуъстри"},"geometry":{"type":"Point","coordinates":[-3.056412,52.857148]}},{"type":"Feature","properties":{"Община":"Обединено кралство Великобритания и Северна Ирландия","text":"Оксфорд","Адрес":"Оксфорд"},"geometry":{"type":"Point","coordinates":[-1.257726,51.752021]}},{"type":"Feature","properties":{"Община":"Обединено кралство Великобритания и Северна Ирландия","text":"Остров Ман","Адрес":"Остров Ман, Дъглас"},"geometry":{"type":"Point","coordinates":[-6.492314,54.787715]}},{"type":"Feature","properties":{"Община":"Обединено кралство Великобритания и Северна Ирландия","text":"Питърбъро","Адрес":"Питърбъро"},"geometry":{"type":"Point","coordinates":[-0.2408,52.570317]}},{"type":"Feature","properties":{"Община":"Обединено кралство Великобритания и Северна Ирландия","text":"Плимут","Адрес":"Плимут"},"geometry":{"type":"Point","coordinates":[-4.142656,50.375457]}},{"type":"Feature","properties":{"Община":"Обединено кралство Великобритания и Северна Ирландия","text":"Портсмут","Адрес":"Портсмут"},"geometry":{"type":"Point","coordinates":[-1.087977,50.819768]}},{"type":"Feature","properties":{"Община":"Обединено кралство Великобритания и Северна Ирландия","text":"Престън/Ланкастър","Адрес":"Престън/Ланкастър"},"geometry":{"type":"Point","coordinates":[-2.799347,54.044907]}},{"type":"Feature","properties":{"Община":"Обединено кралство Великобритания и Северна Ирландия","text":"Пърт, UK","Адрес":"Пърт"},"geometry":{"type":"Point","coordinates":[-3.430838,56.394994]}},{"type":"Feature","properties":{"Община":"Обединено кралство Великобритания и Северна Ирландия","text":"Рединг","Адрес":"Рединг"},"geometry":{"type":"Point","coordinates":[-0.978747,51.45512]}},{"type":"Feature","properties":{"Община":"Обединено кралство Великобритания и Северна Ирландия","text":"Рексъм","Адрес":"Рексъм"},"geometry":{"type":"Point","coordinates":[-2.992494,53.04304]}},{"type":"Feature","properties":{"Община":"Обединено кралство Великобритания и Северна Ирландия","text":"Ромфорд","Адрес":"Ромфорд"},"geometry":{"type":"Point","coordinates":[0.178581,51.577523]}},{"type":"Feature","properties":{"Община":"Обединено кралство Великобритания и Северна Ирландия","text":"Саутенд-он-сии","Адрес":"Саутенд-он-сии"},"geometry":{"type":"Point","coordinates":[0.707712,51.545927]}},{"type":"Feature","properties":{"Община":"Обединено кралство Великобритания и Северна Ирландия","text":"Саутхемптън","Адрес":"Саутхемптън"},"geometry":{"type":"Point","coordinates":[-1.404902,50.910547]}},{"type":"Feature","properties":{"Община":"Обединено кралство Великобритания и Северна Ирландия","text":"Стафорд","Адрес":"Стафорд"},"geometry":{"type":"Point","coordinates":[-2.121961,52.806778]}},{"type":"Feature","properties":{"Община":"Обединено кралство Великобритания и Северна Ирландия","text":"Стоук он Трент","Адрес":"Стоук он Трент"},"geometry":{"type":"Point","coordinates":[-2.182741,53.003337]}},{"type":"Feature","properties":{"Община":"Обединено кралство Великобритания и Северна Ирландия","text":"Стърминстър Нютън","Адрес":"Стърминстър Нютън"},"geometry":{"type":"Point","coordinates":[-3.435973,55.378051]}},{"type":"Feature","properties":{"Община":"Обединено кралство Великобритания и Северна Ирландия","text":"Суиндън","Адрес":"Суиндън"},"geometry":{"type":"Point","coordinates":[-1.779826,51.558144]}},{"type":"Feature","properties":{"Община":"Обединено кралство Великобритания и Северна Ирландия","text":"Телфорд","Адрес":"Телфорд"},"geometry":{"type":"Point","coordinates":[-2.482662,52.676255]}},{"type":"Feature","properties":{"Община":"Обединено кралство Великобритания и Северна Ирландия","text":"Тънбридж Уелс","Адрес":"Тънбридж Уелс"},"geometry":{"type":"Point","coordinates":[0.263695,51.132377]}},{"type":"Feature","properties":{"Община":"Обединено кралство Великобритания и Северна Ирландия","text":"Уестън Супер Мер","Адрес":"Уестън Супер Мер"},"geometry":{"type":"Point","coordinates":[-3.435973,55.378051]}},{"type":"Feature","properties":{"Община":"Обединено кралство Великобритания и Северна Ирландия","text":"Уисбийч","Адрес":"Уисбийч"},"geometry":{"type":"Point","coordinates":[0.158797,52.666317]}},{"type":"Feature","properties":{"Община":"Обединено кралство Великобритания и Северна Ирландия","text":"Уорингтън","Адрес":"Уорингтън"},"geometry":{"type":"Point","coordinates":[-2.602345,53.39204]}},{"type":"Feature","properties":{"Община":"Обединено кралство Великобритания и Северна Ирландия","text":"Уотфорд","Адрес":"Уотфорд"},"geometry":{"type":"Point","coordinates":[-0.39702,51.661128]}},{"type":"Feature","properties":{"Община":"Обединено кралство Великобритания и Северна Ирландия","text":"Устър/Уочестър","Адрес":"Устър/Уочестър"},"geometry":{"type":"Point","coordinates":[-2.219052,52.194139]}},{"type":"Feature","properties":{"Община":"Обединено кралство Великобритания и Северна Ирландия","text":"Уулвърхамптън","Адрес":"Уулвърхамптън"},"geometry":{"type":"Point","coordinates":[-2.125659,52.586816]}},{"type":"Feature","properties":{"Община":"Обединено кралство Великобритания и Северна Ирландия","text":"Хемел-Хемпстед","Адрес":"Хемел-Хемпстед"},"geometry":{"type":"Point","coordinates":[-0.448632,51.753241]}},{"type":"Feature","properties":{"Община":"Обединено кралство Великобритания и Северна Ирландия","text":"Херефорд","Адрес":"Херефорд"},"geometry":{"type":"Point","coordinates":[-2.715974,52.056398]}},{"type":"Feature","properties":{"Община":"Обединено кралство Великобритания и Северна Ирландия","text":"Хъл","Адрес":"Хъл"},"geometry":{"type":"Point","coordinates":[-0.327302,53.767491]}},{"type":"Feature","properties":{"Община":"Обединено кралство Великобритания и Северна Ирландия","text":"Чатъм ","Адрес":"Чатъм "},"geometry":{"type":"Point","coordinates":[0.52213,51.380952]}},{"type":"Feature","properties":{"Община":"Обединено кралство Великобритания и Северна Ирландия","text":"Челмсфорд","Адрес":"Челмсфорд"},"geometry":{"type":"Point","coordinates":[0.46855,51.735587]}},{"type":"Feature","properties":{"Община":"Обединено кралство Великобритания и Северна Ирландия","text":"Честър","Адрес":"Честър"},"geometry":{"type":"Point","coordinates":[-2.893075,53.193392]}},{"type":"Feature","properties":{"Община":"Обединено кралство Великобритания и Северна Ирландия","text":"Шефилд","Адрес":"Шефилд"},"geometry":{"type":"Point","coordinates":[-1.470085,53.381129]}}]}